{
  "features": [
    {
      "geometry": {
        "coordinates": [
          114.109497,
          22.396428
        ],
        "type": "Point"
      },
      "properties": {
        "marker-size": "small",
        "marker-color": "#ff0f00",
        "providers": "Rackspace",
        "location": "Hong Kong"
      },
      "type": "Feature"
    },
    {
      "geometry": {
        "coordinates": [
          150.922433,
          -33.796923
        ],
        "type": "Point"
      },
      "properties": {
        "marker-size": "small",
        "marker-color": "#ff0f00",
        "providers": "Rackspace",
        "location": "Sydney"
      },
      "type": "Feature"
    },
    {
      "geometry": {
        "coordinates": [
-0.101599, 51.528642
        ],
        "type": "Point"
      },
      "properties": {
        "marker-size": "small",
        "marker-color": "#ff0f00",
        "providers": "Rackspace",
        "location": "London"
      },
      "type": "Feature"
    },
    {
      "geometry": {
        "coordinates": [
-96.73134, 32.820665
        ],
        "type": "Point"
      },
      "properties": {
        "marker-size": "small",
        "marker-color": "#ff0f00",
        "providers": "Rackspace",
        "location": "Dallas"
      },
      "type": "Feature"
    },
    {
      "geometry": {
        "coordinates": [
-87.732155, 41.833733
        ],
        "type": "Point"
      },
      "properties": {
        "marker-size": "small",
        "marker-color": "#ff0f00",
        "providers": "Rackspace",
        "location": "Chicago"
      },
      "type": "Feature"
    },
    {
      "geometry": {
        "coordinates": [
-77.349061, 38.955582
        ],
        "type": "Point"
      },
      "properties": {
        "marker-size": "small",
        "marker-color": "#ff0f00",
        "providers": "Rackspace",
        "location": "Northern Virginia"
      },
      "type": "Feature"
    },
    {
      "geometry": {
        "coordinates": [
-97.77134, 33.860665
        ],
        "type": "Point"
      },
      "properties": {
        "marker-size": "small",
        "marker-color": "#0050b0",
        "providers": "SoftLayer",
        "location": "Dallas"
      },
      "type": "Feature"
    },
    {
      "geometry": {
        "coordinates": [
-95.401291, 29.817178
        ],
        "type": "Point"
      },
      "properties": {
        "marker-size": "small",
        "marker-color": "#0050b0",
        "providers": "SoftLayer",
        "location": "Houston"
      },
      "type": "Feature"
    },
    {
      "geometry": {
        "coordinates": [
-121.817413, 37.297016
        ],
        "type": "Point"
      },
      "properties": {
        "marker-size": "small",
        "marker-color": "#0050b0",
        "providers": "SoftLayer",
        "location": "San Jose"
      },
      "type": "Feature"
    },
    {
      "geometry": {
        "coordinates": [
-122.335906, 47.614848
        ],
        "type": "Point"
      },
      "properties": {
        "marker-size": "small",
        "marker-color": "#0050b0",
        "providers": "SoftLayer",
        "location": "Seattle"
      },
      "type": "Feature"
    },
    {
      "geometry": {
        "coordinates": [
-79.377706, 43.718271
        ],
        "type": "Point"
      },
      "properties": {
        "marker-size": "small",
        "marker-color": "#0050b0",
        "providers": "SoftLayer",
        "location": "Toronto"
      },
      "type": "Feature"
    },
    {
      "geometry": {
        "coordinates": [
-77.014567, 38.899349
        ],
        "type": "Point"
      },
      "properties": {
        "marker-size": "small",
        "marker-color": "#0050b0",
        "providers": "SoftLayer",
        "location": "Washington, D.C."
      },
      "type": "Feature"
    },
    {
      "geometry": {
        "coordinates": [
4.898617, 52.374716
        ],
        "type": "Point"
      },
      "properties": {
        "marker-size": "small",
        "marker-color": "#0050b0",
        "providers": "SoftLayer",
        "location": "Amsterdam"
      },
      "type": "Feature"
    },
    {
      "geometry": {
        "coordinates": [
-1.119894, 51.483552
        ],
        "type": "Point"
      },
      "properties": {
        "marker-size": "small",
        "marker-color": "#0050b0",
        "providers": "SoftLayer",
        "location": "London"
      },
      "type": "Feature"
    },
    {
      "geometry": {
        "coordinates": [
114.227753, 22.516446
        ],
        "type": "Point"
      },
      "properties": {
        "marker-size": "small",
        "marker-color": "#0050b0",
        "providers": "SoftLayer",
        "location": "Hong Kong"
      },
      "type": "Feature"
    },
    {
      "geometry": {
        "coordinates": [
103.845409, 1.314663
        ],
        "type": "Point"
      },
      "properties": {
        "marker-size": "small",
        "marker-color": "#0050b0",
        "providers": "SoftLayer",
        "location": "Singapore"
      },
      "type": "Feature"
    }
  ],
  "type": "FeatureCollection"
}
