{
  "features": [
    {
      "geometry": {
        "coordinates": [
          116.109497,
          24.396428
        ],
        "type": "Point"
      },
      "properties": {
        "marker-size": "small",
        "marker-color": "#ff0f00",
        "providers": "Rackspace",
        "location": "Hong Kong"
      },
      "type": "Feature"
    },
    {
      "geometry": {
        "coordinates": [
          150.922433,
          -33.796923
        ],
        "type": "Point"
      },
      "properties": {
        "marker-size": "small",
        "marker-color": "#ff0f00",
        "providers": "Rackspace",
        "location": "Sydney"
      },
      "type": "Feature"
    },
    {
      "geometry": {
        "coordinates": [
-0.101599, 51.528642
        ],
        "type": "Point"
      },
      "properties": {
        "marker-size": "small",
        "marker-color": "#ff0f00",
        "providers": "Rackspace",
        "location": "London"
      },
      "type": "Feature"
    },
    {
      "geometry": {
        "coordinates": [
-96.73134, 32.820665
        ],
        "type": "Point"
      },
      "properties": {
        "marker-size": "small",
        "marker-color": "#ff0f00",
        "providers": "Rackspace",
        "location": "Dallas"
      },
      "type": "Feature"
    },
    {
      "geometry": {
        "coordinates": [
-87.732155, 41.833733
        ],
        "type": "Point"
      },
      "properties": {
        "marker-size": "small",
        "marker-color": "#ff0f00",
        "providers": "Rackspace",
        "location": "Chicago"
      },
      "type": "Feature"
    },
    {
      "geometry": {
        "coordinates": [
-77.349061, 38.955582
        ],
        "type": "Point"
      },
      "properties": {
        "marker-size": "small",
        "marker-color": "#ff0f00",
        "providers": "Rackspace",
        "location": "Northern Virginia"
      },
      "type": "Feature"
    },
    {
      "geometry": {
        "coordinates": [
-97.77134, 33.860665
        ],
        "type": "Point"
      },
      "properties": {
        "marker-size": "small",
        "marker-color": "#0050b0",
        "providers": "SoftLayer",
        "location": "Dallas"
      },
      "type": "Feature"
    },
    {
      "geometry": {
        "coordinates": [
-95.401291, 29.817178
        ],
        "type": "Point"
      },
      "properties": {
        "marker-size": "small",
        "marker-color": "#0050b0",
        "providers": "SoftLayer",
        "location": "Houston"
      },
      "type": "Feature"
    },
    {
      "geometry": {
        "coordinates": [
-121.817413, 37.297016
        ],
        "type": "Point"
      },
      "properties": {
        "marker-size": "small",
        "marker-color": "#0050b0",
        "providers": "SoftLayer",
        "location": "San Jose"
      },
      "type": "Feature"
    },
    {
      "geometry": {
        "coordinates": [
-122.335906, 47.614848
        ],
        "type": "Point"
      },
      "properties": {
        "marker-size": "small",
        "marker-color": "#0050b0",
        "providers": "SoftLayer",
        "location": "Seattle"
      },
      "type": "Feature"
    },
    {
      "geometry": {
        "coordinates": [
-79.377706, 43.718271
        ],
        "type": "Point"
      },
      "properties": {
        "marker-size": "small",
        "marker-color": "#0050b0",
        "providers": "SoftLayer",
        "location": "Toronto"
      },
      "type": "Feature"
    },
    {
      "geometry": {
        "coordinates": [
-77.014567, 38.899349
        ],
        "type": "Point"
      },
      "properties": {
        "marker-size": "small",
        "marker-color": "#0050b0",
        "providers": "SoftLayer",
        "location": "Washington, D.C."
      },
      "type": "Feature"
    },
    {
      "geometry": {
        "coordinates": [
4.898617, 52.374716
        ],
        "type": "Point"
      },
      "properties": {
        "marker-size": "small",
        "marker-color": "#0050b0",
        "providers": "SoftLayer",
        "location": "Amsterdam"
      },
      "type": "Feature"
    },
    {
      "geometry": {
        "coordinates": [
-1.119894, 51.483552
        ],
        "type": "Point"
      },
      "properties": {
        "marker-size": "small",
        "marker-color": "#0050b0",
        "providers": "SoftLayer",
        "location": "London"
      },
      "type": "Feature"
    },
    {
      "geometry": {
        "coordinates": [
114.227753, 22.516446
        ],
        "type": "Point"
      },
      "properties": {
        "marker-size": "small",
        "marker-color": "#0050b0",
        "providers": "SoftLayer",
        "location": "Hong Kong"
      },
      "type": "Feature"
    },
    {
      "geometry": {
        "coordinates": [
103.845409, 1.314663
        ],
        "type": "Point"
      },
      "properties": {
        "marker-size": "small",
        "marker-color": "#0050b0",
        "providers": "SoftLayer",
        "location": "Singapore"
      },
      "type": "Feature"
    },
    {
      "geometry": {
        "coordinates": [
145.079616, -37.8602828
        ],
        "type": "Point"
      },
      "properties": {
        "marker-size": "small",
        "marker-color": "#0050b0",
        "providers": "SoftLayer",
        "location": "Melbourne"
      },
      "type": "Feature"
    }, 
    {
      "geometry": {
        "coordinates": [
-99.1521845, 19.3200988
        ],
        "type": "Point"
      },
      "properties": {
        "marker-size": "small",
        "marker-color": "#0050b0",
        "providers": "SoftLayer",
        "location": "Mexico City"
      },
      "type": "Feature"
    },
    {
      "geometry": {
        "coordinates": [
2.3470599, 48.8588589
        ],
        "type": "Point"
      },
      "properties": {
        "marker-size": "small",
        "marker-color": "#0050b0",
        "providers": "SoftLayer",
        "location": "Paris"
      },
      "type": "Feature"
    },
    {
      "geometry": {
        "coordinates": [
139.710388, 35.673343
        ],
        "type": "Point"
      },
      "properties": {
        "marker-size": "small",
        "marker-color": "#0050b0",
        "providers": "SoftLayer",
        "location": "Tokyo"
      },
      "type": "Feature"
    },
    {
      "geometry": {
        "coordinates": [
-78.484974, 38.040087
        ],
        "type": "Point"
      },
      "properties": {
        "marker-size": "small",
        "marker-color": "#b58900",
        "providers": "AWS",
        "location": "US East (VA)"
      },
      "type": "Feature"
    },
    {
      "geometry": {
        "coordinates": [
-120.548374, 41.489515
        ],
        "type": "Point"
      },
      "properties": {
        "marker-size": "small",
        "marker-color": "#b58900",
        "providers": "AWS",
        "location": "US West (CA)"
      },
      "type": "Feature"
    },
    {
      "geometry": {
        "coordinates": [
-123.9229, 46.173974
        ],
        "type": "Point"
      },
      "properties": {
        "marker-size": "small",
        "marker-color": "#b58900",
        "providers": "AWS",
        "location": "US West (OR)"
      },
      "type": "Feature"
    },
    {
      "geometry": {
        "coordinates": [
-46.396284, -23.426557
        ],
        "type": "Point"
      },
      "properties": {
        "marker-size": "small",
        "marker-color": "#b58900",
        "providers": "AWS",
        "location": "Sao Paulo"
      },
      "type": "Feature"
    },
    {
      "geometry": {
        "coordinates": [
-7.9133, 53.091399
        ],
        "type": "Point"
      },
      "properties": {
        "marker-size": "small",
        "marker-color": "#b58900",
        "providers": "AWS",
        "location": "Ireland"
      },
      "type": "Feature"
    },
    {
      "geometry": {
        "coordinates": [
103.802151, 1.441141
        ],
        "type": "Point"
      },
      "properties": {
        "marker-size": "small",
        "marker-color": "#b58900",
        "providers": "AWS",
        "location": "Singapore"
      },
      "type": "Feature"
    },
    {
      "geometry": {
        "coordinates": [
139.710388, 35.673343
        ],
        "type": "Point"
      },
      "properties": {
        "marker-size": "small",
        "marker-color": "#b58900",
        "providers": "AWS",
        "location": "Tokyo"
      },
      "type": "Feature"
    },
    {
      "geometry": {
        "coordinates": [
          151.922433,
          -34.796923
        ],
        "type": "Point"
      },
      "properties": {
        "marker-size": "small",
        "marker-color": "#b58900",
        "providers": "AWS",
        "location": "Sydney"
      },
      "type": "Feature"
    },
    {
      "geometry": {
        "coordinates": [
          8.636564,
          50.121212
        ],
        "type": "Point"
      },
      "properties": {
        "marker-size": "small",
        "marker-color": "#b58900",
        "providers": "AWS",
        "location": "Frankfurt"
      },
      "type": "Feature"
    }
  ],
  "type": "FeatureCollection"
}
